city,course1,course2,course3,course4,course5,course6,course7,course8,course9,course10,course11,course12,course13,course14,course15,course16,course17,course18,course19,course20,course21,course22,course23,course24,course25,course26,course27,course28,course29,course30,course31,course32,course33,course34,course35,course36,course37,course38,course39,website1,website2,website3,website4,website5,website6,website7,website8,website9,website10,website11,website12,website13,website14,website15,website16,website17,website18,website19,website20,website21,website22,website23,website24,website25,website26,website27,website28,website29,website30,website31,website32,website33,website34,website35,website36,website37,website38,website39,ongoing1,ongoing2,ongoing3,ongoing4,ongoing5,ongoing6,ongoing7,ongoing8,ongoing9,ongoing10,ongoing11,ongoing12,ongoing13,ongoing14,ongoing15,ongoing16,ongoing17,ongoing18,ongoing19,ongoing20,ongoing21,ongoing22,ongoing23,ongoing24,ongoing25,ongoing26,ongoing27,ongoing28,ongoing29,ongoing30,ongoing31,ongoing32,ongoing33,ongoing34,ongoing35,ongoing36,ongoing37,ongoing38,ongoing39,status1,status2,status3,status4,status5,status6,status7,status8,status9,status10,status11,status12,status13,status14,status15,status16,status17,status18,status19,status20,status21,status22,status23,status24,status25,status26,status27,status28,status29,status30,status31,status32,status33,status34,status35,status36,status37,status38,status39,lon,lat,code,title,Freq
Aarhus,EGS-ABG,,,,,,,,,,,,,,,,,,,,,,,,,,,,,,,,,,,,,,,http://www.egsabg.eu/,,,,,,,,,,,,,,,,,,,,,,,,,,,,,,,,,,,,,,,1,,,,,,,,,,,,,,,,,,,,,,,,,,,,,,,,,,,,,,,,,,,,,,,,,,,,,,,,,,,,,,,,,,,,,,,,,,,,,,10.2039,56.1629,Aarhus,Aarhus,1
Bielefeld,EDEEM,GEM-EMJD,,,,,,,,,,,,,,,,,,,,,,,,,,,,,,,,,,,,,,http://www.edeem.de/,http://www.erasmusmundus-gem.eu/,,,,,,,,,,,,,,,,,,,,,,,,,,,,,,,,,,,,,,1,,,,,,,,,,,,,,,,,,,,,,,,,,,,,,,,,,,,,,,,,,,,,,,,,,,,,,,,,,,,,,,,,,,,,,,,,,,,,,8.5324708,52.0302285,Bielefeld,Bielefeld,2
Bologna,EDLE,LAST-JD,MACOMA,MARES,SINCHEM,,,,,,,,,,,,,,,,,,,,,,,,,,,,,,,,,,,http://www.edle-phd.eu/,http://www.last-jd.eu/,http://www2.uca.es/serv/catedra-unesco/erasmusmundus/macoma/index.htm,http://www.mares-eu.org/,http://smdtex.ensait.fr/doku.php,,,,,,,,,,,,,,,,,,,,,,,,,,,,,,,,,,,1,1,1,,1,,,,,,,,,,,,,,,,,,,,,,,,,,,,,,,,,,,,,,,,,,,,,,,,,,,,,,,,,,,,,,,,,,,,,,,,,,11.3426163,44.494887,Bologna,Bologna,5
Borås,SMDTex,,,,,,,,,,,,,,,,,,,,,,,,,,,,,,,,,,,,,,,http://smdtex.ensait.fr/doku.php,,,,,,,,,,,,,,,,,,,,,,,,,,,,,,,,,,,,,,,1,,,,,,,,,,,,,,,,,,,,,,,,,,,,,,,,,,,,,,,,,,,,,,,,,,,,,,,,,,,,,,,,,,,,,,,,,,,,,,12.8571,57.7240257,Borås,Borås,1
Bordeaux,ALGANT-DOC,ENC Network,IDS-FunMat,TG,,,,,,,,,,,,,,,,,,,,,,,,,,,,,,,,,,,,http://algant.eu/doctorate.php,http://www.enc-network.eu/,http://www.idsfunmat.u-bordeaux1.fr/,http://www.transglobalhealth.org/,,,,,,,,,,,,,,,,,,,,,,,,,,,,,,,,,,,,1,1,1,1,,,,,,,,,,,,,,,,,,,,,,,,,,,,,,,,,,,,,,,,,,,,,,,,,,,,,,,,,,,,,,,,,,,,,,,,,,,-0.5792,44.8378,Bordeaux,Bordeaux,4
Boston,GEM-EMJD,,,,,,,,,,,,,,,,,,,,,,,,,,,,,,,,,,,,,,,http://www.erasmusmundus-gem.eu/,,,,,,,,,,,,,,,,,,,,,,,,,,,,,,,,,,,,,,,,,,,,,,,,,,,,,,,,,,,,,,,,,,,,,,,,,,,,,,,,,,,,,,,,,,,,,,,,,,,,,,,,,,,,,,,,,,,,,-71.05977,42.35843,Boston,Boston,1
Bremen,MARES,,,,,,,,,,,,,,,,,,,,,,,,,,,,,,,,,,,,,,,http://www.mares-eu.org/,,,,,,,,,,,,,,,,,,,,,,,,,,,,,,,,,,,,,,,,,,,,,,,,,,,,,,,,,,,,,,,,,,,,,,,,,,,,,,,,,,,,,,,,,,,,,,,,,,,,,,,,,,,,,,,,,,,,,8.80777,53.07516,Bremen,Bremen,1
Brussels,GEM-EMJD,IT4BIDC,SEED,,,,,,,,,,,,,,,,,,,,,,,,,,,,,,,,,,,,,http://www.erasmusmundus-gem.eu/,https://it4bi-dc.ulb.ac.be/,http://www.cimne.com/emjd-seed/,,,,,,,,,,,,,,,,,,,,,,,,,,,,,,,,,,,,,,1,1,,,,,,,,,,,,,,,,,,,,,,,,,,,,,,,,,,,,,,,,,,,,,,,,,,,,,,,,,,,,,,,,,,,,,,,,,,,,4.3517103,50.8503396,Brussels,Brussels,3
Budapest,DCGC,,,,,,,,,,,,,,,,,,,,,,,,,,,,,,,,,,,,,,,http://www.dcgc.eu/,,,,,,,,,,,,,,,,,,,,,,,,,,,,,,,,,,,,,,,1,,,,,,,,,,,,,,,,,,,,,,,,,,,,,,,,,,,,,,,,,,,,,,,,,,,,,,,,,,,,,,,,,,,,,,,,,,,,,,19.040235,47.497912,Budapest,Budapest,1
Cadiz,MACOMA,,,,,,,,,,,,,,,,,,,,,,,,,,,,,,,,,,,,,,,http://www2.uca.es/serv/catedra-unesco/erasmusmundus/macoma/index.htm,,,,,,,,,,,,,,,,,,,,,,,,,,,,,,,,,,,,,,,1,,,,,,,,,,,,,,,,,,,,,,,,,,,,,,,,,,,,,,,,,,,,,,,,,,,,,,,,,,,,,,,,,,,,,,,,,,,,,,-6.2885962,36.5270612,Cadiz,Cadiz,1
Caen,IDS-FunMat,,,,,,,,,,,,,,,,,,,,,,,,,,,,,,,,,,,,,,,http://www.idsfunmat.u-bordeaux1.fr/,,,,,,,,,,,,,,,,,,,,,,,,,,,,,,,,,,,,,,,1,,,,,,,,,,,,,,,,,,,,,,,,,,,,,,,,,,,,,,,,,,,,,,,,,,,,,,,,,,,,,,,,,,,,,,,,,,,,,,-0.370679,49.182863,Caen,Caen,1
Canterbury,DCGC,TEEME,,,,,,,,,,,,,,,,,,,,,,,,,,,,,,,,,,,,,,http://www.dcgc.eu/,http://www.teemeurope.eu/,,,,,,,,,,,,,,,,,,,,,,,,,,,,,,,,,,,,,,1,,,,,,,,,,,,,,,,,,,,,,,,,,,,,,,,,,,,,,,,,,,,,,,,,,,,,,,,,,,,,,,,,,,,,,,,,,,,,,1.07992,51.27904,Canterbury,Canterbury,2
Carbondale,SMART,,,,,,,,,,,,,,,,,,,,,,,,,,,,,,,,,,,,,,,https://www.riverscience.eu/,,,,,,,,,,,,,,,,,,,,,,,,,,,,,,,,,,,,,,,1,,,,,,,,,,,,,,,,,,,,,,,,,,,,,,,,,,,,,,,,,,,,,,,,,,,,,,,,,,,,,,,,,,,,,,,,,,,,,,-89.21675,37.72727,Carbondale,Carbondale,1
Cassino,ETeGoS3,,,,,,,,,,,,,,,,,,,,,,,,,,,,,,,,,,,,,,,http://www.internationaldoctorate.unicas.it/,,,,,,,,,,,,,,,,,,,,,,,,,,,,,,,,,,,,,,,,,,,,,,,,,,,,,,,,,,,,,,,,,,,,,,,,,,,,,,,,,,,,,,,,,,,,,,,,,,,,,,,,,,,,,,,,,,,,,13.8332193,41.4866953,Cassino,Cassino,1
Catania,AgTraIn,,,,,,,,,,,,,,,,,,,,,,,,,,,,,,,,,,,,,,,http://agtrain.eu/,,,,,,,,,,,,,,,,,,,,,,,,,,,,,,,,,,,,,,,1,,,,,,,,,,,,,,,,,,,,,,,,,,,,,,,,,,,,,,,,,,,,,,,,,,,,,,,,,,,,,,,,,,,,,,,,,,,,,,15.0830304,37.5078772,Catania,Catania,1
Delft,ETeGoS3,SETS,,,,,,,,,,,,,,,,,,,,,,,,,,,,,,,,,,,,,,http://www.internationaldoctorate.unicas.it/,http://www.setsjointdoctorate.eu/,,,,,,,,,,,,,,,,,,,,,,,,,,,,,,,,,,,,,,,,,,,,,,,,,,,,,,,,,,,,,,,,,,,,,,,,,,,,,,,,,,,,,,,,,,,,,,,,,,,,,,,,,,,,,,,,,,,,4.3570677,52.0115769,Delft,Delft,2
Dresden,FONASO,IT4BIDC,,,,,,,,,,,,,,,,,,,,,,,,,,,,,,,,,,,,,,http://fonaso.eu/,https://it4bi-dc.ulb.ac.be/,,,,,,,,,,,,,,,,,,,,,,,,,,,,,,,,,,,,,,1,1,,,,,,,,,,,,,,,,,,,,,,,,,,,,,,,,,,,,,,,,,,,,,,,,,,,,,,,,,,,,,,,,,,,,,,,,,,,,,13.7372621,51.0504088,Dresden,Dresden,2
Dublin,EXTATIC,,,,,,,,,,,,,,,,,,,,,,,,,,,,,,,,,,,,,,,http://www.extatic.eu/,,,,,,,,,,,,,,,,,,,,,,,,,,,,,,,,,,,,,,,1,,,,,,,,,,,,,,,,,,,,,,,,,,,,,,,,,,,,,,,,,,,,,,,,,,,,,,,,,,,,,,,,,,,,,,,,,,,,,,-6.2676448,53.3386609,Dublin,Dublin,1
Edinburgh,EUROSPIN,,,,,,,,,,,,,,,,,,,,,,,,,,,,,,,,,,,,,,,https://www.kth.se/en/studies/phd/joint-doctorate/eurospin,,,,,,,,,,,,,,,,,,,,,,,,,,,,,,,,,,,,,,,1,,,,,,,,,,,,,,,,,,,,,,,,,,,,,,,,,,,,,,,,,,,,,,,,,,,,,,,,,,,,,,,,,,,,,,,,,,,,,,-3.188267,55.953252,Edinburgh,Edinburgh,1
Eindhoven,ICE,SEED,SELECT+,,,,,,,,,,,,,,,,,,,,,,,,,,,,,,,,,,,,,https://www.icephd.org/,http://www.cimne.com/emjd-seed/,http://www.exploreselect.eu/SELECTPhD/tabid/1264/language/en-GB/Default.aspx,,,,,,,,,,,,,,,,,,,,,,,,,,,,,,,,,,,,,,1,1,,,,,,,,,,,,,,,,,,,,,,,,,,,,,,,,,,,,,,,,,,,,,,,,,,,,,,,,,,,,,,,,,,,,,,,,,,,,5.47778,51.44083,Eindhoven,Eindhoven,3
Enschede,EUDIME,,,,,,,,,,,,,,,,,,,,,,,,,,,,,,,,,,,,,,,http://eudime.unical.it/,,,,,,,,,,,,,,,,,,,,,,,,,,,,,,,,,,,,,,,1,,,,,,,,,,,,,,,,,,,,,,,,,,,,,,,,,,,,,,,,,,,,,,,,,,,,,,,,,,,,,,,,,,,,,,,,,,,,,,6.8936619,52.2215372,Enschede,Enschede,1
Espoo,SELECT+,,,,,,,,,,,,,,,,,,,,,,,,,,,,,,,,,,,,,,,http://www.exploreselect.eu/SELECTPhD/tabid/1264/language/en-GB/Default.aspx,,,,,,,,,,,,,,,,,,,,,,,,,,,,,,,,,,,,,,,1,,,,,,,,,,,,,,,,,,,,,,,,,,,,,,,,,,,,,,,,,,,,,,,,,,,,,,,,,,,,,,,,,,,,,,,,,,,,,,24.6522,60.2052,Espoo,Espoo,1
Évora,PHOENIX,,,,,,,,,,,,,,,,,,,,,,,,,,,,,,,,,,,,,,,http://www.phoenix-jdp.eu/,,,,,,,,,,,,,,,,,,,,,,,,,,,,,,,,,,,,,,,1,,,,,,,,,,,,,,,,,,,,,,,,,,,,,,,,,,,,,,,,,,,,,,,,,,,,,,,,,,,,,,,,,,,,,,,,,,,,,,-7.83333,38.58333,Évora,Évora,1
Ferrara,IDQP,IRAP,,,,,,,,,,,,,,,,,,,,,,,,,,,,,,,,,,,,,,https://sites.google.com/a/unife.it/idqp/,http://www.irap-phd.eu/,,,,,,,,,,,,,,,,,,,,,,,,,,,,,,,,,,,,,,1,,,,,,,,,,,,,,,,,,,,,,,,,,,,,,,,,,,,,,,,,,,,,,,,,,,,,,,,,,,,,,,,,,,,,,,,,,,,,,11.619787,44.8381237,Ferrara,Ferrara,2
Firenze,EUROPHOTONICS - DOC,SETS,,,,,,,,,,,,,,,,,,,,,,,,,,,,,,,,,,,,,,http://www.europhotonics.org/wordpress/doctorate,http://www.setsjointdoctorate.eu/,,,,,,,,,,,,,,,,,,,,,,,,,,,,,,,,,,,,,,1,,,,,,,,,,,,,,,,,,,,,,,,,,,,,,,,,,,,,,,,,,,,,,,,,,,,,,,,,,,,,,,,,,,,,,,,,,,,,,11.24626,43.77925,Firenze,Firenze,2
Freiburg,EUROSPIN,NeuroTi,,,,,,,,,,,,,,,,,,,,,,,,,,,,,,,,,,,,,,https://www.kth.se/en/studies/phd/joint-doctorate/eurospin,http://www.neurotime-erasmus.org/,,,,,,,,,,,,,,,,,,,,,,,,,,,,,,,,,,,,,,1,1,,,,,,,,,,,,,,,,,,,,,,,,,,,,,,,,,,,,,,,,,,,,,,,,,,,,,,,,,,,,,,,,,,,,,,,,,,,,,7.8421043,47.9990077,Freiburg,Freiburg,2
Galway,MARES,,,,,,,,,,,,,,,,,,,,,,,,,,,,,,,,,,,,,,,http://www.mares-eu.org/,,,,,,,,,,,,,,,,,,,,,,,,,,,,,,,,,,,,,,,,,,,,,,,,,,,,,,,,,,,,,,,,,,,,,,,,,,,,,,,,,,,,,,,,,,,,,,,,,,,,,,,,,,,,,,,,,,,,,-9.0567905,53.270668,Galway,Galway,1
Genf,GEM-EMJD,,,,,,,,,,,,,,,,,,,,,,,,,,,,,,,,,,,,,,,http://www.erasmusmundus-gem.eu/,,,,,,,,,,,,,,,,,,,,,,,,,,,,,,,,,,,,,,,,,,,,,,,,,,,,,,,,,,,,,,,,,,,,,,,,,,,,,,,,,,,,,,,,,,,,,,,,,,,,,,,,,,,,,,,,,,,,,6.109,46.2050836,Genf,Genf,1
Genova,ICE,,,,,,,,,,,,,,,,,,,,,,,,,,,,,,,,,,,,,,,https://www.icephd.org/,,,,,,,,,,,,,,,,,,,,,,,,,,,,,,,,,,,,,,,,,,,,,,,,,,,,,,,,,,,,,,,,,,,,,,,,,,,,,,,,,,,,,,,,,,,,,,,,,,,,,,,,,,,,,,,,,,,,,8.946256,44.4056499,Genova,Genova,1
Gent,FUSION DC,MARES,,,,,,,,,,,,,,,,,,,,,,,,,,,,,,,,,,,,,,http://www.em-master-fusion.org/,http://www.mares-eu.org/,,,,,,,,,,,,,,,,,,,,,,,,,,,,,,,,,,,,,,1,,,,,,,,,,,,,,,,,,,,,,,,,,,,,,,,,,,,,,,,,,,,,,,,,,,,,,,,,,,,,,,,,,,,,,,,,,,,,,3.71667,51.05,Gent,Gent,2
Gothenburg,EMJD-LP,,,,,,,,,,,,,,,,,,,,,,,,,,,,,,,,,,,,,,,http://legalpsychology.eu/,,,,,,,,,,,,,,,,,,,,,,,,,,,,,,,,,,,,,,,1,,,,,,,,,,,,,,,,,,,,,,,,,,,,,,,,,,,,,,,,,,,,,,,,,,,,,,,,,,,,,,,,,,,,,,,,,,,,,,11.97456,57.70887,Gothenburg,Gothenburg,1
Göttingen,ENC Network,FONASO,,,,,,,,,,,,,,,,,,,,,,,,,,,,,,,,,,,,,,http://www.enc-network.eu/,http://fonaso.eu/,,,,,,,,,,,,,,,,,,,,,,,,,,,,,,,,,,,,,,1,1,,,,,,,,,,,,,,,,,,,,,,,,,,,,,,,,,,,,,,,,,,,,,,,,,,,,,,,,,,,,,,,,,,,,,,,,,,,,,9.9158035,51.5412804,Göttingen,Göttingen,2
Greifswald,FUSION DC,,,,,,,,,,,,,,,,,,,,,,,,,,,,,,,,,,,,,,,http://www.em-master-fusion.org/,,,,,,,,,,,,,,,,,,,,,,,,,,,,,,,,,,,,,,,1,,,,,,,,,,,,,,,,,,,,,,,,,,,,,,,,,,,,,,,,,,,,,,,,,,,,,,,,,,,,,,,,,,,,,,,,,,,,,,13.38786,54.09311,Greifswald,Greifswald,1
Grenoble,IDS-FunMat,,,,,,,,,,,,,,,,,,,,,,,,,,,,,,,,,,,,,,,http://www.idsfunmat.u-bordeaux1.fr/,,,,,,,,,,,,,,,,,,,,,,,,,,,,,,,,,,,,,,,1,,,,,,,,,,,,,,,,,,,,,,,,,,,,,,,,,,,,,,,,,,,,,,,,,,,,,,,,,,,,,,,,,,,,,,,,,,,,,,5.724524,45.188529,Grenoble,Grenoble,1
Groningen,IDEALAB,,,,,,,,,,,,,,,,,,,,,,,,,,,,,,,,,,,,,,,http://www.em-idealab.com//,,,,,,,,,,,,,,,,,,,,,,,,,,,,,,,,,,,,,,,1,,,,,,,,,,,,,,,,,,,,,,,,,,,,,,,,,,,,,,,,,,,,,,,,,,,,,,,,,,,,,,,,,,,,,,,,,,,,,,6.5665018,53.2193835,Groningen,Groningen,1
Hamburg,DCGC,EDLE,,,,,,,,,,,,,,,,,,,,,,,,,,,,,,,,,,,,,,http://www.dcgc.eu/,http://www.edle-phd.eu/,,,,,,,,,,,,,,,,,,,,,,,,,,,,,,,,,,,,,,1,1,,,,,,,,,,,,,,,,,,,,,,,,,,,,,,,,,,,,,,,,,,,,,,,,,,,,,,,,,,,,,,,,,,,,,,,,,,,,,9.9936818,53.5510846,Hamburg,Hamburg,2
Helsinki,SELECT+,,,,,,,,,,,,,,,,,,,,,,,,,,,,,,,,,,,,,,,http://www.exploreselect.eu/SELECTPhD/tabid/1264/language/en-GB/Default.aspx,,,,,,,,,,,,,,,,,,,,,,,,,,,,,,,,,,,,,,,1,,,,,,,,,,,,,,,,,,,,,,,,,,,,,,,,,,,,,,,,,,,,,,,,,,,,,,,,,,,,,,,,,,,,,,,,,,,,,,24.938379,60.1698557,Helsinki,Helsinki,1
Iași,SMDTex,,,,,,,,,,,,,,,,,,,,,,,,,,,,,,,,,,,,,,,http://smdtex.ensait.fr/doku.php,,,,,,,,,,,,,,,,,,,,,,,,,,,,,,,,,,,,,,,1,,,,,,,,,,,,,,,,,,,,,,,,,,,,,,,,,,,,,,,,,,,,,,,,,,,,,,,,,,,,,,,,,,,,,,,,,,,,,,27.516,47.1562327,Iași,Iași,1
Jerusalem,NeuroTi,,,,,,,,,,,,,,,,,,,,,,,,,,,,,,,,,,,,,,,http://www.neurotime-erasmus.org/,,,,,,,,,,,,,,,,,,,,,,,,,,,,,,,,,,,,,,,1,,,,,,,,,,,,,,,,,,,,,,,,,,,,,,,,,,,,,,,,,,,,,,,,,,,,,,,,,,,,,,,,,,,,,,,,,,,,,,35.10531,31.7964453,Jerusalem,Jerusalem,1
Karlsruhe,EUROPHOTONICS - DOC,,,,,,,,,,,,,,,,,,,,,,,,,,,,,,,,,,,,,,,http://www.europhotonics.org/wordpress/doctorate,,,,,,,,,,,,,,,,,,,,,,,,,,,,,,,,,,,,,,,1,,,,,,,,,,,,,,,,,,,,,,,,,,,,,,,,,,,,,,,,,,,,,,,,,,,,,,,,,,,,,,,,,,,,,,,,,,,,,,8.4036527,49.0068901,Karlsruhe,Karlsruhe,1
Klagenfurt Am Wörthersee,ICE,,,,,,,,,,,,,,,,,,,,,,,,,,,,,,,,,,,,,,,https://www.icephd.org/,,,,,,,,,,,,,,,,,,,,,,,,,,,,,,,,,,,,,,,,,,,,,,,,,,,,,,,,,,,,,,,,,,,,,,,,,,,,,,,,,,,,,,,,,,,,,,,,,,,,,,,,,,,,,,,,,,,,,14.30528,46.62472,Klagenfurt Am Wörthersee,Klagenfurt Am Wörthersee,1
Klaipėda,MARES,,,,,,,,,,,,,,,,,,,,,,,,,,,,,,,,,,,,,,,http://www.mares-eu.org/,,,,,,,,,,,,,,,,,,,,,,,,,,,,,,,,,,,,,,,,,,,,,,,,,,,,,,,,,,,,,,,,,,,,,,,,,,,,,,,,,,,,,,,,,,,,,,,,,,,,,,,,,,,,,,,,,,,,,21.0178,55.7054542,Klaipėda,Klaipėda,1
Kolkata,IRAP,,,,,,,,,,,,,,,,,,,,,,,,,,,,,,,,,,,,,,,http://www.irap-phd.eu/,,,,,,,,,,,,,,,,,,,,,,,,,,,,,,,,,,,,,,,,,,,,,,,,,,,,,,,,,,,,,,,,,,,,,,,,,,,,,,,,,,,,,,,,,,,,,,,,,,,,,,,,,,,,,,,,,,,,,88.088,22.6761144,Kolkata,Kolkata,1
La Coruna,NanoFar,,,,,,,,,,,,,,,,,,,,,,,,,,,,,,,,,,,,,,,http://www.erasmusmundus-nanofar.eu/,,,,,,,,,,,,,,,,,,,,,,,,,,,,,,,,,,,,,,,,,,,,,,,,,,,,,,,,,,,,,,,,,,,,,,,,,,,,,,,,,,,,,,,,,,,,,,,,,,,,,,,,,,,,,,,,,,,,,-8.396,43.37135,La Coruna,La Coruna,1
Leeds,INTERZONES,,,,,,,,,,,,,,,,,,,,,,,,,,,,,,,,,,,,,,,http://www.mundusphd-interzones.eu/,,,,,,,,,,,,,,,,,,,,,,,,,,,,,,,,,,,,,,,,,,,,,,,,,,,,,,,,,,,,,,,,,,,,,,,,,,,,,,,,,,,,,,,,,,,,,,,,,,,,,,,,,,,,,,,,,,,,,-1.5490774,53.8007554,Leeds,Leeds,1
Leiden,ALGANT-DOC,,,,,,,,,,,,,,,,,,,,,,,,,,,,,,,,,,,,,,,http://algant.eu/doctorate.php,,,,,,,,,,,,,,,,,,,,,,,,,,,,,,,,,,,,,,,1,,,,,,,,,,,,,,,,,,,,,,,,,,,,,,,,,,,,,,,,,,,,,,,,,,,,,,,,,,,,,,,,,,,,,,,,,,,,,,4.49306,52.15833,Leiden,Leiden,1
Leuven,EUDIME,FETALMED,MoveAge,,,,,,,,,,,,,,,,,,,,,,,,,,,,,,,,,,,,,http://eudime.unical.it/,http://fetalmed-em.eu/,http://www.move-age.eu/,,,,,,,,,,,,,,,,,,,,,,,,,,,,,,,,,,,,,1,1,1,,,,,,,,,,,,,,,,,,,,,,,,,,,,,,,,,,,,,,,,,,,,,,,,,,,,,,,,,,,,,,,,,,,,,,,,,,,,4.7005176,50.8798438,Leuven,Leuven,3
Liege,IDS-FunMat,NanoFar,,,,,,,,,,,,,,,,,,,,,,,,,,,,,,,,,,,,,,http://www.idsfunmat.u-bordeaux1.fr/,http://www.erasmusmundus-nanofar.eu/,,,,,,,,,,,,,,,,,,,,,,,,,,,,,,,,,,,,,,1,,,,,,,,,,,,,,,,,,,,,,,,,,,,,,,,,,,,,,,,,,,,,,,,,,,,,,,,,,,,,,,,,,,,,,,,,,,,,,5.56749,50.63373,Liege,Liege,2
Gdansk,MARES,,,,,,,,,,,,,,,,,,,,,,,,,,,,,,,,,,,,,,,http://www.mares-eu.org/,,,,,,,,,,,,,,,,,,,,,,,,,,,,,,,,,,,,,,,,,,,,,,,,,,,,,,,,,,,,,,,,,,,,,,,,,,,,,,,,,,,,,,,,,,,,,,,,,,,,,,,,,,,,,,,,,,,,,18.6466384,54.3520252,Gdansk,Gdansk,1
Linköping,DocMASE,PHOENIX,,,,,,,,,,,,,,,,,,,,,,,,,,,,,,,,,,,,,,http://docmase.net,http://www.phoenix-jdp.eu/,,,,,,,,,,,,,,,,,,,,,,,,,,,,,,,,,,,,,,1,1,,,,,,,,,,,,,,,,,,,,,,,,,,,,,,,,,,,,,,,,,,,,,,,,,,,,,,,,,,,,,,,,,,,,,,,,,,,,,15.5407,58.4035187,Linköping,Linköping,2
Lisboa,EDEEM,EMJD-DC,FUSION DC,IDS-FunMat,PHOENIX,SEED,SELECT+,,,,,,,,,,,,,,,,,,,,,,,,,,,,,,,,,http://www.edeem.de/,http://emjd-dc.eu/,http://www.em-master-fusion.org/,http://www.idsfunmat.u-bordeaux1.fr/,http://www.phoenix-jdp.eu/,http://www.cimne.com/emjd-seed/,http://www.exploreselect.eu/SELECTPhD/tabid/1264/language/en-GB/Default.aspx,,,,,,,,,,,,,,,,,,,,,,,,,,,,,,,,,1,1,1,1,1,1,1,,,,,,,,,,,,,,,,,,,,,,,,,,,,,,,,,,,,,,,,,,,,,,,,,,,,,,,,,,,,,,,,,,,,,,,,-9.13333,38.71667,Lisboa,Lisboa,7
London,EXTATIC,ICE,SMART,,,,,,,,,,,,,,,,,,,,,,,,,,,,,,,,,,,,,http://www.extatic.eu/,https://www.icephd.org/,https://www.riverscience.eu/,,,,,,,,,,,,,,,,,,,,,,,,,,,,,,,,,,,,,1,,1,,,,,,,,,,,,,,,,,,,,,,,,,,,,,,,,,,,,,,,,,,,,,,,,,,,,,,,,,,,,,,,,,,,,,,,,,,,,-0.1277583,51.5073509,London,London,3
Louvain-La-Neuve,EDEEM,EMJD-DC,IDS-FunMat,NanoFar,,,,,,,,,,,,,,,,,,,,,,,,,,,,,,,,,,,,http://www.edeem.de/,http://emjd-dc.eu/,http://www.idsfunmat.u-bordeaux1.fr/,http://www.erasmusmundus-nanofar.eu/,,,,,,,,,,,,,,,,,,,,,,,,,,,,,,,,,,,,1,1,1,,,,,,,,,,,,,,,,,,,,,,,,,,,,,,,,,,,,,,,,,,,,,,,,,,,,,,,,,,,,,,,,,,,,,,,,,,,,4.61443,50.66829,Louvain-La-Neuve,Louvain-La-Neuve,4
Luleå,DocMASE,,,,,,,,,,,,,,,,,,,,,,,,,,,,,,,,,,,,,,,http://docmase.net,,,,,,,,,,,,,,,,,,,,,,,,,,,,,,,,,,,,,,,1,,,,,,,,,,,,,,,,,,,,,,,,,,,,,,,,,,,,,,,,,,,,,,,,,,,,,,,,,,,,,,,,,,,,,,,,,,,,,,22.111,65.5871561,Luleå,Luleå,1
Lund,FETALMED,,,,,,,,,,,,,,,,,,,,,,,,,,,,,,,,,,,,,,,http://fetalmed-em.eu/,,,,,,,,,,,,,,,,,,,,,,,,,,,,,,,,,,,,,,,1,,,,,,,,,,,,,,,,,,,,,,,,,,,,,,,,,,,,,,,,,,,,,,,,,,,,,,,,,,,,,,,,,,,,,,,,,,,,,,13.2034,55.7119483,Lund,Lund,1
Luxembourg,LAST-JD,,,,,,,,,,,,,,,,,,,,,,,,,,,,,,,,,,,,,,,http://www.last-jd.eu/,,,,,,,,,,,,,,,,,,,,,,,,,,,,,,,,,,,,,,,1,,,,,,,,,,,,,,,,,,,,,,,,,,,,,,,,,,,,,,,,,,,,,,,,,,,,,,,,,,,,,,,,,,,,,,,,,,,,,,6.1008,49.6076553,Luxembourg,Luxembourg,1
Lyon,SINCHEM,,,,,,,,,,,,,,,,,,,,,,,,,,,,,,,,,,,,,,,http://smdtex.ensait.fr/doku.php,,,,,,,,,,,,,,,,,,,,,,,,,,,,,,,,,,,,,,,1,,,,,,,,,,,,,,,,,,,,,,,,,,,,,,,,,,,,,,,,,,,,,,,,,,,,,,,,,,,,,,,,,,,,,,,,,,,,,,4.835659,45.764043,Lyon,Lyon,1
Maastricht,EMJD-LP,,,,,,,,,,,,,,,,,,,,,,,,,,,,,,,,,,,,,,,http://legalpsychology.eu/,,,,,,,,,,,,,,,,,,,,,,,,,,,,,,,,,,,,,,,1,,,,,,,,,,,,,,,,,,,,,,,,,,,,,,,,,,,,,,,,,,,,,,,,,,,,,,,,,,,,,,,,,,,,,,,,,,,,,,5.6909725,50.8513682,Maastricht,Maastricht,1
Madrid,AgTraIn,EDIM,FUSION DC,SETS,,,,,,,,,,,,,,,,,,,,,,,,,,,,,,,,,,,,http://agtrain.eu/,http://www.edim-phd.eu/,http://www.em-master-fusion.org/,http://www.setsjointdoctorate.eu/,,,,,,,,,,,,,,,,,,,,,,,,,,,,,,,,,,,,1,1,1,,,,,,,,,,,,,,,,,,,,,,,,,,,,,,,,,,,,,,,,,,,,,,,,,,,,,,,,,,,,,,,,,,,,,,,,,,,,-3.7037902,40.4167754,Madrid,Madrid,4
Manchester,MoveAge,,,,,,,,,,,,,,,,,,,,,,,,,,,,,,,,,,,,,,,http://www.move-age.eu/,,,,,,,,,,,,,,,,,,,,,,,,,,,,,,,,,,,,,,,1,,,,,,,,,,,,,,,,,,,,,,,,,,,,,,,,,,,,,,,,,,,,,,,,,,,,,,,,,,,,,,,,,,,,,,,,,,,,,,-2.23743,53.48095,Manchester,Manchester,1
Marseille,EUROPHOTONICS - DOC,,,,,,,,,,,,,,,,,,,,,,,,,,,,,,,,,,,,,,,http://www.europhotonics.org/wordpress/doctorate,,,,,,,,,,,,,,,,,,,,,,,,,,,,,,,,,,,,,,,1,,,,,,,,,,,,,,,,,,,,,,,,,,,,,,,,,,,,,,,,,,,,,,,,,,,,,,,,,,,,,,,,,,,,,,,,,,,,,,5.36978,43.296482,Marseille,Marseille,1
Messina,SINCHEM,,,,,,,,,,,,,,,,,,,,,,,,,,,,,,,,,,,,,,,http://smdtex.ensait.fr/doku.php,,,,,,,,,,,,,,,,,,,,,,,,,,,,,,,,,,,,,,,1,,,,,,,,,,,,,,,,,,,,,,,,,,,,,,,,,,,,,,,,,,,,,,,,,,,,,,,,,,,,,,,,,,,,,,,,,,,,,,15.55256,38.19394,Messina,Messina,1
Milano,ALGANT-DOC,EDIM,,,,,,,,,,,,,,,,,,,,,,,,,,,,,,,,,,,,,,http://algant.eu/doctorate.php,http://www.edim-phd.eu/,,,,,,,,,,,,,,,,,,,,,,,,,,,,,,,,,,,,,,1,1,,,,,,,,,,,,,,,,,,,,,,,,,,,,,,,,,,,,,,,,,,,,,,,,,,,,,,,,,,,,,,,,,,,,,,,,,,,,,9.18951,45.46427,Milano,Milano,2
Montpellier,AgTraIn,EUDIME,SINCHEM,,,,,,,,,,,,,,,,,,,,,,,,,,,,,,,,,,,,,http://agtrain.eu/,http://eudime.unical.it/,http://smdtex.ensait.fr/doku.php,,,,,,,,,,,,,,,,,,,,,,,,,,,,,,,,,,,,,1,1,1,,,,,,,,,,,,,,,,,,,,,,,,,,,,,,,,,,,,,,,,,,,,,,,,,,,,,,,,,,,,,,,,,,,,,,,,,,,,3.8767,43.6108,Montpellier,Montpellier,3
Paris,ALGANT-DOC,EDEEM,EGS-ABG,ETeGoS3,FONASO,IDQP,IDS-FunMat,MARES,PHOENIX,SETS,,,,,,,,,,,,,,,,,,,,,,,,,,,,,,http://algant.eu/doctorate.php,http://www.edeem.de/,http://www.egsabg.eu/,http://www.internationaldoctorate.unicas.it/,http://fonaso.eu/,https://sites.google.com/a/unife.it/idqp/,http://www.idsfunmat.u-bordeaux1.fr/,http://www.mares-eu.org/,http://www.phoenix-jdp.eu/,http://www.setsjointdoctorate.eu/,,,,,,,,,,,,,,,,,,,,,,,,,,,,,,1,1,1,,1,1,1,,1,,,,,,,,,,,,,,,,,,,,,,,,,,,,,,,,,,,,,,,,,,,,,,,,,,,,,,,,,,,,,,,,,,,,,,2.3522219,48.856614,Paris,Paris,10
Pavia,MARES,SEED,,,,,,,,,,,,,,,,,,,,,,,,,,,,,,,,,,,,,,http://www.mares-eu.org/,http://www.cimne.com/emjd-seed/,,,,,,,,,,,,,,,,,,,,,,,,,,,,,,,,,,,,,,,1,,,,,,,,,,,,,,,,,,,,,,,,,,,,,,,,,,,,,,,,,,,,,,,,,,,,,,,,,,,,,,,,,,,,,,,,,,,,,9.1582069,45.1847248,Pavia,Pavia,2
Perpignan,INTERZONES,,,,,,,,,,,,,,,,,,,,,,,,,,,,,,,,,,,,,,,http://www.mundusphd-interzones.eu/,,,,,,,,,,,,,,,,,,,,,,,,,,,,,,,,,,,,,,,,,,,,,,,,,,,,,,,,,,,,,,,,,,,,,,,,,,,,,,,,,,,,,,,,,,,,,,,,,,,,,,,,,,,,,,,,,,,,,2.8948,42.6887,Perpignan,Perpignan,1
Plymouth,MARES,,,,,,,,,,,,,,,,,,,,,,,,,,,,,,,,,,,,,,,http://www.mares-eu.org/,,,,,,,,,,,,,,,,,,,,,,,,,,,,,,,,,,,,,,,,,,,,,,,,,,,,,,,,,,,,,,,,,,,,,,,,,,,,,,,,,,,,,,,,,,,,,,,,,,,,,,,,,,,,,,,,,,,,,-4.14305,50.37153,Plymouth,Plymouth,1
Porto,TEEME,,,,,,,,,,,,,,,,,,,,,,,,,,,,,,,,,,,,,,,http://www.teemeurope.eu/,,,,,,,,,,,,,,,,,,,,,,,,,,,,,,,,,,,,,,,,,,,,,,,,,,,,,,,,,,,,,,,,,,,,,,,,,,,,,,,,,,,,,,,,,,,,,,,,,,,,,,,,,,,,,,,,,,,,,-8.6291053,41.1579438,Porto,Porto,1
Portsmouth,EMJD-LP,,,,,,,,,,,,,,,,,,,,,,,,,,,,,,,,,,,,,,,http://legalpsychology.eu/,,,,,,,,,,,,,,,,,,,,,,,,,,,,,,,,,,,,,,,1,,,,,,,,,,,,,,,,,,,,,,,,,,,,,,,,,,,,,,,,,,,,,,,,,,,,,,,,,,,,,,,,,,,,,,,,,,,,,,-1.09125,50.79899,Portsmouth,Portsmouth,1
Potsdam,IDEALAB,IRAP,,,,,,,,,,,,,,,,,,,,,,,,,,,,,,,,,,,,,,http://www.em-idealab.com//,http://www.irap-phd.eu/,,,,,,,,,,,,,,,,,,,,,,,,,,,,,,,,,,,,,,1,,,,,,,,,,,,,,,,,,,,,,,,,,,,,,,,,,,,,,,,,,,,,,,,,,,,,,,,,,,,,,,,,,,,,,,,,,,,,,13.0644729,52.3905689,Potsdam,Potsdam,2
Poznan,IT4BIDC,,,,,,,,,,,,,,,,,,,,,,,,,,,,,,,,,,,,,,,https://it4bi-dc.ulb.ac.be/,,,,,,,,,,,,,,,,,,,,,,,,,,,,,,,,,,,,,,,1,,,,,,,,,,,,,,,,,,,,,,,,,,,,,,,,,,,,,,,,,,,,,,,,,,,,,,,,,,,,,,,,,,,,,,,,,,,,,,16.92993,52.40692,Poznan,Poznan,1
Prague,EUDIME,EXTATIC,TEEME,,,,,,,,,,,,,,,,,,,,,,,,,,,,,,,,,,,,,http://eudime.unical.it/,http://www.extatic.eu/,http://www.teemeurope.eu/,,,,,,,,,,,,,,,,,,,,,,,,,,,,,,,,,,,,,1,1,,,,,,,,,,,,,,,,,,,,,,,,,,,,,,,,,,,,,,,,,,,,,,,,,,,,,,,,,,,,,,,,,,,,,,,,,,,,,14.4378005,50.0755381,Prague,Prague,3
Rio De Janeiro,IRAP,,,,,,,,,,,,,,,,,,,,,,,,,,,,,,,,,,,,,,,http://www.irap-phd.eu/,,,,,,,,,,,,,,,,,,,,,,,,,,,,,,,,,,,,,,,,,,,,,,,,,,,,,,,,,,,,,,,,,,,,,,,,,,,,,,,,,,,,,,,,,,,,,,,,,,,,,,,,,,,,,,,,,,,,,-43.5,-22.9108558,Rio De Janeiro,Rio De Janeiro,1
Roma,GEM-EMJD,IRAP,,,,,,,,,,,,,,,,,,,,,,,,,,,,,,,,,,,,,,http://www.erasmusmundus-gem.eu/,http://www.irap-phd.eu/,,,,,,,,,,,,,,,,,,,,,,,,,,,,,,,,,,,,,,,,,,,,,,,,,,,,,,,,,,,,,,,,,,,,,,,,,,,,,,,,,,,,,,,,,,,,,,,,,,,,,,,,,,,,,,,,,,,,12.51133,41.89193,Roma,Roma,2
Rotterdam,EDLE,,,,,,,,,,,,,,,,,,,,,,,,,,,,,,,,,,,,,,,http://www.edle-phd.eu/,,,,,,,,,,,,,,,,,,,,,,,,,,,,,,,,,,,,,,,1,,,,,,,,,,,,,,,,,,,,,,,,,,,,,,,,,,,,,,,,,,,,,,,,,,,,,,,,,,,,,,,,,,,,,,,,,,,,,,4.4777325,51.9244201,Rotterdam,Rotterdam,1
Roubaix,SMDTex,,,,,,,,,,,,,,,,,,,,,,,,,,,,,,,,,,,,,,,http://smdtex.ensait.fr/doku.php,,,,,,,,,,,,,,,,,,,,,,,,,,,,,,,,,,,,,,,1,,,,,,,,,,,,,,,,,,,,,,,,,,,,,,,,,,,,,,,,,,,,,,,,,,,,,,,,,,,,,,,,,,,,,,,,,,,,,,3.17456,50.69421,Roubaix,Roubaix,1
Saarbrücken,DocMASE,,,,,,,,,,,,,,,,,,,,,,,,,,,,,,,,,,,,,,,http://docmase.net,,,,,,,,,,,,,,,,,,,,,,,,,,,,,,,,,,,,,,,1,,,,,,,,,,,,,,,,,,,,,,,,,,,,,,,,,,,,,,,,,,,,,,,,,,,,,,,,,,,,,,,,,,,,,,,,,,,,,,6.9969327,49.2401572,Saarbrücken,Saarbrücken,1
Saint-Paul-lez-Durance,FUSION DC,,,,,,,,,,,,,,,,,,,,,,,,,,,,,,,,,,,,,,,http://www.em-master-fusion.org/,,,,,,,,,,,,,,,,,,,,,,,,,,,,,,,,,,,,,,,1,,,,,,,,,,,,,,,,,,,,,,,,,,,,,,,,,,,,,,,,,,,,,,,,,,,,,,,,,,,,,,,,,,,,,,,,,,,,,,5.740684,43.699411,Saint-Paul-lez-Durance,Saint-Paul-lez-Durance,1
Shanghai,GEM-EMJD,IRAP,,,,,,,,,,,,,,,,,,,,,,,,,,,,,,,,,,,,,,http://www.erasmusmundus-gem.eu/,http://www.irap-phd.eu/,,,,,,,,,,,,,,,,,,,,,,,,,,,,,,,,,,,,,,,,,,,,,,,,,,,,,,,,,,,,,,,,,,,,,,,,,,,,,,,,,,,,,,,,,,,,,,,,,,,,,,,,,,,,,,,,,,,,121.45806,31.22222,Shanghai,Shanghai,2
Southampton,EXTATIC,,,,,,,,,,,,,,,,,,,,,,,,,,,,,,,,,,,,,,,http://www.extatic.eu/,,,,,,,,,,,,,,,,,,,,,,,,,,,,,,,,,,,,,,,1,,,,,,,,,,,,,,,,,,,,,,,,,,,,,,,,,,,,,,,,,,,,,,,,,,,,,,,,,,,,,,,,,,,,,,,,,,,,,,-1.4043509,50.9097004,Southampton,Southampton,1
Uppsala,EGS-ABG,FONASO,,,,,,,,,,,,,,,,,,,,,,,,,,,,,,,,,,,,,,http://www.egsabg.eu/,http://fonaso.eu/,,,,,,,,,,,,,,,,,,,,,,,,,,,,,,,,,,,,,,1,1,,,,,,,,,,,,,,,,,,,,,,,,,,,,,,,,,,,,,,,,,,,,,,,,,,,,,,,,,,,,,,,,,,,,,,,,,,,,,17.6389267,59.8585638,Uppsala,Uppsala,2
Utrecht,DCGC,,,,,,,,,,,,,,,,,,,,,,,,,,,,,,,,,,,,,,,http://www.dcgc.eu/,,,,,,,,,,,,,,,,,,,,,,,,,,,,,,,,,,,,,,,1,,,,,,,,,,,,,,,,,,,,,,,,,,,,,,,,,,,,,,,,,,,,,,,,,,,,,,,,,,,,,,,,,,,,,,,,,,,,,,5.1214,52.0907,Utrecht,Utrecht,1
Venezia,EDEEM,,,,,,,,,,,,,,,,,,,,,,,,,,,,,,,,,,,,,,,http://www.edeem.de/,,,,,,,,,,,,,,,,,,,,,,,,,,,,,,,,,,,,,,,1,,,,,,,,,,,,,,,,,,,,,,,,,,,,,,,,,,,,,,,,,,,,,,,,,,,,,,,,,,,,,,,,,,,,,,,,,,,,,,12.328176,45.43682,Venezia,Venezia,1
Warsaw,EXTATIC,,,,,,,,,,,,,,,,,,,,,,,,,,,,,,,,,,,,,,,http://www.extatic.eu/,,,,,,,,,,,,,,,,,,,,,,,,,,,,,,,,,,,,,,,1,,,,,,,,,,,,,,,,,,,,,,,,,,,,,,,,,,,,,,,,,,,,,,,,,,,,,,,,,,,,,,,,,,,,,,,,,,,,,,21.017532,52.237049,Warsaw,Warsaw,1
Vila Real,IDQP,,,,,,,,,,,,,,,,,,,,,,,,,,,,,,,,,,,,,,,https://sites.google.com/a/unife.it/idqp/,,,,,,,,,,,,,,,,,,,,,,,,,,,,,,,,,,,,,,,1,,,,,,,,,,,,,,,,,,,,,,,,,,,,,,,,,,,,,,,,,,,,,,,,,,,,,,,,,,,,,,,,,,,,,,,,,,,,,,-7.74413,41.30062,Vila Real,Vila Real,1
Vilnius,LAST-JD,,,,,,,,,,,,,,,,,,,,,,,,,,,,,,,,,,,,,,,http://www.last-jd.eu/,,,,,,,,,,,,,,,,,,,,,,,,,,,,,,,,,,,,,,,1,,,,,,,,,,,,,,,,,,,,,,,,,,,,,,,,,,,,,,,,,,,,,,,,,,,,,,,,,,,,,,,,,,,,,,,,,,,,,,25.2796514,54.6871555,Vilnius,Vilnius,1
Wageningen,AgTraIn,EGS-ABG,,,,,,,,,,,,,,,,,,,,,,,,,,,,,,,,,,,,,,http://agtrain.eu/,http://www.egsabg.eu/,,,,,,,,,,,,,,,,,,,,,,,,,,,,,,,,,,,,,,1,1,,,,,,,,,,,,,,,,,,,,,,,,,,,,,,,,,,,,,,,,,,,,,,,,,,,,,,,,,,,,,,,,,,,,,,,,,,,,,5.6654,51.9692,Wageningen,Wageningen,2
Waterloo,IDS-FunMat,,,,,,,,,,,,,,,,,,,,,,,,,,,,,,,,,,,,,,,http://www.idsfunmat.u-bordeaux1.fr/,,,,,,,,,,,,,,,,,,,,,,,,,,,,,,,,,,,,,,,1,,,,,,,,,,,,,,,,,,,,,,,,,,,,,,,,,,,,,,,,,,,,,,,,,,,,,,,,,,,,,,,,,,,,,,,,,,,,,,-80.41638,43.4501,Waterloo,Waterloo,1
Zürich,ENC Network,,,,,,,,,,,,,,,,,,,,,,,,,,,,,,,,,,,,,,,http://www.enc-network.eu/,,,,,,,,,,,,,,,,,,,,,,,,,,,,,,,,,,,,,,,1,,,,,,,,,,,,,,,,,,,,,,,,,,,,,,,,,,,,,,,,,,,,,,,,,,,,,,,,,,,,,,,,,,,,,,,,,,,,,,8.4666755,47.3775499,Zürich,Zürich,1
Aachen,EXTATIC,SINCHEM,,,,,,,,,,,,,,,,,,,,,,,,,,,,,,,,,,,,,,http://www.extatic.eu/,http://smdtex.ensait.fr/doku.php,,,,,,,,,,,,,,,,,,,,,,,,,,,,,,,,,,,,,,1,1,,,,,,,,,,,,,,,,,,,,,,,,,,,,,,,,,,,,,,,,,,,,,,,,,,,,,,,,,,,,,,,,,,,,,,,,,,,,,6.08342,50.77664,Aachen,Aachen,2
Aalborg East,IT4BIDC,,,,,,,,,,,,,,,,,,,,,,,,,,,,,,,,,,,,,,,https://it4bi-dc.ulb.ac.be/,,,,,,,,,,,,,,,,,,,,,,,,,,,,,,,,,,,,,,,1,,,,,,,,,,,,,,,,,,,,,,,,,,,,,,,,,,,,,,,,,,,,,,,,,,,,,,,,,,,,,,,,,,,,,,,,,,,,,,9.97428,57.0406042,Aalborg East,Aalborg East,1
Algarve,MACOMA,MARES,,,,,,,,,,,,,,,,,,,,,,,,,,,,,,,,,,,,,,http://www2.uca.es/serv/catedra-unesco/erasmusmundus/macoma/index.htm,http://www.mares-eu.org/,,,,,,,,,,,,,,,,,,,,,,,,,,,,,,,,,,,,,,1,,,,,,,,,,,,,,,,,,,,,,,,,,,,,,,,,,,,,,,,,,,,,,,,,,,,,,,,,,,,,,,,,,,,,,,,,,,,,,-7.930834,37.0179538,Algarve,Algarve,2
Amsterdam,EDEEM,ENC Network,MoveAge,NeuroTi,TG,,,,,,,,,,,,,,,,,,,,,,,,,,,,,,,,,,,http://www.edeem.de/,http://www.enc-network.eu/,http://www.move-age.eu/,http://www.neurotime-erasmus.org/,http://www.transglobalhealth.org/,,,,,,,,,,,,,,,,,,,,,,,,,,,,,,,,,,,1,1,1,1,1,,,,,,,,,,,,,,,,,,,,,,,,,,,,,,,,,,,,,,,,,,,,,,,,,,,,,,,,,,,,,,,,,,,,,,,,,,4.8951679,52.3702157,Amsterdam,Amsterdam,5
Angers,NanoFar,,,,,,,,,,,,,,,,,,,,,,,,,,,,,,,,,,,,,,,http://www.erasmusmundus-nanofar.eu/,,,,,,,,,,,,,,,,,,,,,,,,,,,,,,,,,,,,,,,,,,,,,,,,,,,,,,,,,,,,,,,,,,,,,,,,,,,,,,,,,,,,,,,,,,,,,,,,,,,,,,,,,,,,,,,,,,,,,-0.563166,47.478419,Angers,Angers,1
Antwerpen,TG,,,,,,,,,,,,,,,,,,,,,,,,,,,,,,,,,,,,,,,http://www.transglobalhealth.org/,,,,,,,,,,,,,,,,,,,,,,,,,,,,,,,,,,,,,,,1,,,,,,,,,,,,,,,,,,,,,,,,,,,,,,,,,,,,,,,,,,,,,,,,,,,,,,,,,,,,,,,,,,,,,,,,,,,,,,4.40346,51.21989,Antwerpen,Antwerpen,1
Arcavacata Di Rende (Cs),EUDIME,,,,,,,,,,,,,,,,,,,,,,,,,,,,,,,,,,,,,,,http://eudime.unical.it/,,,,,,,,,,,,,,,,,,,,,,,,,,,,,,,,,,,,,,,1,,,,,,,,,,,,,,,,,,,,,,,,,,,,,,,,,,,,,,,,,,,,,,,,,,,,,,,,,,,,,,,,,,,,,,,,,,,,,,16.2104,39.361982,Arcavacata Di Rende (Cs),Arcavacata Di Rende (Cs),1
Aveiro,MACOMA,MARES,,,,,,,,,,,,,,,,,,,,,,,,,,,,,,,,,,,,,,http://www2.uca.es/serv/catedra-unesco/erasmusmundus/macoma/index.htm,http://www.mares-eu.org/,,,,,,,,,,,,,,,,,,,,,,,,,,,,,,,,,,,,,,1,,,,,,,,,,,,,,,,,,,,,,,,,,,,,,,,,,,,,,,,,,,,,,,,,,,,,,,,,,,,,,,,,,,,,,,,,,,,,,-8.6538,40.6405,Aveiro,Aveiro,2
Baltimore,SETS,,,,,,,,,,,,,,,,,,,,,,,,,,,,,,,,,,,,,,,http://www.setsjointdoctorate.eu/,,,,,,,,,,,,,,,,,,,,,,,,,,,,,,,,,,,,,,,,,,,,,,,,,,,,,,,,,,,,,,,,,,,,,,,,,,,,,,,,,,,,,,,,,,,,,,,,,,,,,,,,,,,,,,,,,,,,,-76.6121893,39.2903848,Baltimore,Baltimore,1
Barcelona,DocMASE,EMJD-DC,EUROPHOTONICS - DOC,FETALMED,ICE,IT4BIDC,LAST-JD,SEED,SELECT+,TG,,,,,,,,,,,,,,,,,,,,,,,,,,,,,,http://docmase.net,http://emjd-dc.eu/,http://www.europhotonics.org/wordpress/doctorate,http://fetalmed-em.eu/,https://www.icephd.org/,https://it4bi-dc.ulb.ac.be/,http://www.last-jd.eu/,http://www.cimne.com/emjd-seed/,http://www.exploreselect.eu/SELECTPhD/tabid/1264/language/en-GB/Default.aspx,http://www.transglobalhealth.org/,,,,,,,,,,,,,,,,,,,,,,,,,,,,,,1,1,1,1,,1,1,1,1,1,,,,,,,,,,,,,,,,,,,,,,,,,,,,,,,,,,,,,,,,,,,,,,,,,,,,,,,,,,,,,,,,,,,,,2.0784,41.5006927,Barcelona,Barcelona,10
Basel,NeuroTi,,,,,,,,,,,,,,,,,,,,,,,,,,,,,,,,,,,,,,,http://www.neurotime-erasmus.org/,,,,,,,,,,,,,,,,,,,,,,,,,,,,,,,,,,,,,,,1,,,,,,,,,,,,,,,,,,,,,,,,,,,,,,,,,,,,,,,,,,,,,,,,,,,,,,,,,,,,,,,,,,,,,,,,,,,,,,7.55944,47.5546492,Basel,Basel,1
Bengaluru,EUROSPIN,,,,,,,,,,,,,,,,,,,,,,,,,,,,,,,,,,,,,,,https://www.kth.se/en/studies/phd/joint-doctorate/eurospin,,,,,,,,,,,,,,,,,,,,,,,,,,,,,,,,,,,,,,,1,,,,,,,,,,,,,,,,,,,,,,,,,,,,,,,,,,,,,,,,,,,,,,,,,,,,,,,,,,,,,,,,,,,,,,,,,,,,,,77.49085,12.9542946,Bengaluru,Bengaluru,1
Bergamo,INTERZONES,,,,,,,,,,,,,,,,,,,,,,,,,,,,,,,,,,,,,,,http://www.mundusphd-interzones.eu/,,,,,,,,,,,,,,,,,,,,,,,,,,,,,,,,,,,,,,,,,,,,,,,,,,,,,,,,,,,,,,,,,,,,,,,,,,,,,,,,,,,,,,,,,,,,,,,,,,,,,,,,,,,,,,,,,,,,,9.6773,45.6983,Bergamo,Bergamo,1
Berlin,IRAP,SMART,TEEME,,,,,,,,,,,,,,,,,,,,,,,,,,,,,,,,,,,,,http://www.irap-phd.eu/,https://www.riverscience.eu/,http://www.teemeurope.eu/,,,,,,,,,,,,,,,,,,,,,,,,,,,,,,,,,,,,,,1,,,,,,,,,,,,,,,,,,,,,,,,,,,,,,,,,,,,,,,,,,,,,,,,,,,,,,,,,,,,,,,,,,,,,,,,,,,,,13.404954,52.5200066,Berlin,Berlin,3
Kraków,SELECT+,,,,,,,,,,,,,,,,,,,,,,,,,,,,,,,,,,,,,,,http://www.exploreselect.eu/SELECTPhD/tabid/1264/language/en-GB/Default.aspx,,,,,,,,,,,,,,,,,,,,,,,,,,,,,,,,,,,,,,,1,,,,,,,,,,,,,,,,,,,,,,,,,,,,,,,,,,,,,,,,,,,,,,,,,,,,,,,,,,,,,,,,,,,,,,,,,,,,,,19.93658,50.06143,Kraków,Kraków,1
Chambery,IRAP,,,,,,,,,,,,,,,,,,,,,,,,,,,,,,,,,,,,,,,http://www.irap-phd.eu/,,,,,,,,,,,,,,,,,,,,,,,,,,,,,,,,,,,,,,,,,,,,,,,,,,,,,,,,,,,,,,,,,,,,,,,,,,,,,,,,,,,,,,,,,,,,,,,,,,,,,,,,,,,,,,,,,,,,,5.93333,45.56667,Chambery,Chambery,1
Chennai,ALGANT-DOC,,,,,,,,,,,,,,,,,,,,,,,,,,,,,,,,,,,,,,,http://algant.eu/doctorate.php,,,,,,,,,,,,,,,,,,,,,,,,,,,,,,,,,,,,,,,1,,,,,,,,,,,,,,,,,,,,,,,,,,,,,,,,,,,,,,,,,,,,,,,,,,,,,,,,,,,,,,,,,,,,,,,,,,,,,,80.233903,12.9908081,Chennai,Chennai,1
Coimbra,ENC Network,,,,,,,,,,,,,,,,,,,,,,,,,,,,,,,,,,,,,,,http://www.enc-network.eu/,,,,,,,,,,,,,,,,,,,,,,,,,,,,,,,,,,,,,,,1,,,,,,,,,,,,,,,,,,,,,,,,,,,,,,,,,,,,,,,,,,,,,,,,,,,,,,,,,,,,,,,,,,,,,,,,,,,,,,-8.4404,40.2048,Coimbra,Coimbra,1
College Station,SMART,,,,,,,,,,,,,,,,,,,,,,,,,,,,,,,,,,,,,,,https://www.riverscience.eu/,,,,,,,,,,,,,,,,,,,,,,,,,,,,,,,,,,,,,,,1,,,,,,,,,,,,,,,,,,,,,,,,,,,,,,,,,,,,,,,,,,,,,,,,,,,,,,,,,,,,,,,,,,,,,,,,,,,,,,-96.33441,30.62798,College Station,College Station,1
Cork,AgTraIn,,,,,,,,,,,,,,,,,,,,,,,,,,,,,,,,,,,,,,,http://agtrain.eu/,,,,,,,,,,,,,,,,,,,,,,,,,,,,,,,,,,,,,,,1,,,,,,,,,,,,,,,,,,,,,,,,,,,,,,,,,,,,,,,,,,,,,,,,,,,,,,,,,,,,,,,,,,,,,,,,,,,,,,-8.4863,51.8969,Cork,Cork,1
Coventry,GEM-EMJD,,,,,,,,,,,,,,,,,,,,,,,,,,,,,,,,,,,,,,,http://www.erasmusmundus-gem.eu/,,,,,,,,,,,,,,,,,,,,,,,,,,,,,,,,,,,,,,,,,,,,,,,,,,,,,,,,,,,,,,,,,,,,,,,,,,,,,,,,,,,,,,,,,,,,,,,,,,,,,,,,,,,,,,,,,,,,,-1.51217,52.40656,Coventry,Coventry,1
Darmstadt,IDS-FunMat,,,,,,,,,,,,,,,,,,,,,,,,,,,,,,,,,,,,,,,http://www.idsfunmat.u-bordeaux1.fr/,,,,,,,,,,,,,,,,,,,,,,,,,,,,,,,,,,,,,,,1,,,,,,,,,,,,,,,,,,,,,,,,,,,,,,,,,,,,,,,,,,,,,,,,,,,,,,,,,,,,,,,,,,,,,,,,,,,,,,8.6512,49.8728,Darmstadt,Darmstadt,1
Stockholm,EDIM,EMJD-DC,EUROSPIN,IRAP,SELECT+,SETS,,,,,,,,,,,,,,,,,,,,,,,,,,,,,,,,,,http://www.edim-phd.eu/,http://emjd-dc.eu/,https://www.kth.se/en/studies/phd/joint-doctorate/eurospin,http://www.irap-phd.eu/,http://www.exploreselect.eu/SELECTPhD/tabid/1264/language/en-GB/Default.aspx,http://www.setsjointdoctorate.eu/,,,,,,,,,,,,,,,,,,,,,,,,,,,,,,,,,,1,1,1,,1,,,,,,,,,,,,,,,,,,,,,,,,,,,,,,,,,,,,,,,,,,,,,,,,,,,,,,,,,,,,,,,,,,,,,,,,,,18.0685808,59.3293235,Stockholm,Stockholm,6
Strasbourg,NeuroTi,,,,,,,,,,,,,,,,,,,,,,,,,,,,,,,,,,,,,,,http://www.neurotime-erasmus.org/,,,,,,,,,,,,,,,,,,,,,,,,,,,,,,,,,,,,,,,1,,,,,,,,,,,,,,,,,,,,,,,,,,,,,,,,,,,,,,,,,,,,,,,,,,,,,,,,,,,,,,,,,,,,,,,,,,,,,,7.7521113,48.5734053,Strasbourg,Strasbourg,1
Stuttgart,FUSION DC,,,,,,,,,,,,,,,,,,,,,,,,,,,,,,,,,,,,,,,http://www.em-master-fusion.org/,,,,,,,,,,,,,,,,,,,,,,,,,,,,,,,,,,,,,,,1,,,,,,,,,,,,,,,,,,,,,,,,,,,,,,,,,,,,,,,,,,,,,,,,,,,,,,,,,,,,,,,,,,,,,,,,,,,,,,9.1829321,48.7758459,Stuttgart,Stuttgart,1
Suzhou,SMDTex,,,,,,,,,,,,,,,,,,,,,,,,,,,,,,,,,,,,,,,http://smdtex.ensait.fr/doku.php,,,,,,,,,,,,,,,,,,,,,,,,,,,,,,,,,,,,,,,1,,,,,,,,,,,,,,,,,,,,,,,,,,,,,,,,,,,,,,,,,,,,,,,,,,,,,,,,,,,,,,,,,,,,,,,,,,,,,,120.6071,31.307807,Suzhou,Suzhou,1
Swansea,SEED,,,,,,,,,,,,,,,,,,,,,,,,,,,,,,,,,,,,,,,http://www.cimne.com/emjd-seed/,,,,,,,,,,,,,,,,,,,,,,,,,,,,,,,,,,,,,,,1,,,,,,,,,,,,,,,,,,,,,,,,,,,,,,,,,,,,,,,,,,,,,,,,,,,,,,,,,,,,,,,,,,,,,,,,,,,,,,-3.943646,51.62144,Swansea,Swansea,1
Sydney New South Wales,IDEALAB,,,,,,,,,,,,,,,,,,,,,,,,,,,,,,,,,,,,,,,http://www.em-idealab.com//,,,,,,,,,,,,,,,,,,,,,,,,,,,,,,,,,,,,,,,1,,,,,,,,,,,,,,,,,,,,,,,,,,,,,,,,,,,,,,,,,,,,,,,,,,,,,,,,,,,,,,,,,,,,,,,,,,,,,,151.208,-33.87187,Sydney New South Wales,Sydney New South Wales,1
Tarragona,IDQP,,,,,,,,,,,,,,,,,,,,,,,,,,,,,,,,,,,,,,,https://sites.google.com/a/unife.it/idqp/,,,,,,,,,,,,,,,,,,,,,,,,,,,,,,,,,,,,,,,1,,,,,,,,,,,,,,,,,,,,,,,,,,,,,,,,,,,,,,,,,,,,,,,,,,,,,,,,,,,,,,,,,,,,,,,,,,,,,,1.2444909,41.1188827,Tarragona,Tarragona,1
Texel,MARES,,,,,,,,,,,,,,,,,,,,,,,,,,,,,,,,,,,,,,,http://www.mares-eu.org/,,,,,,,,,,,,,,,,,,,,,,,,,,,,,,,,,,,,,,,,,,,,,,,,,,,,,,,,,,,,,,,,,,,,,,,,,,,,,,,,,,,,,,,,,,,,,,,,,,,,,,,,,,,,,,,,,,,,,4.81166,53.07883,Texel,Texel,1
Tilburg,LAST-JD,,,,,,,,,,,,,,,,,,,,,,,,,,,,,,,,,,,,,,,http://www.last-jd.eu/,,,,,,,,,,,,,,,,,,,,,,,,,,,,,,,,,,,,,,,1,,,,,,,,,,,,,,,,,,,,,,,,,,,,,,,,,,,,,,,,,,,,,,,,,,,,,,,,,,,,,,,,,,,,,,,,,,,,,,5.0913,51.55551,Tilburg,Tilburg,1
Tokyo,GEM-EMJD,,,,,,,,,,,,,,,,,,,,,,,,,,,,,,,,,,,,,,,http://www.erasmusmundus-gem.eu/,,,,,,,,,,,,,,,,,,,,,,,,,,,,,,,,,,,,,,,,,,,,,,,,,,,,,,,,,,,,,,,,,,,,,,,,,,,,,,,,,,,,,,,,,,,,,,,,,,,,,,,,,,,,,,,,,,,,,139.6917,35.6895,Tokyo,Tokyo,1
Tõravere,IRAP,,,,,,,,,,,,,,,,,,,,,,,,,,,,,,,,,,,,,,,http://www.irap-phd.eu/,,,,,,,,,,,,,,,,,,,,,,,,,,,,,,,,,,,,,,,,,,,,,,,,,,,,,,,,,,,,,,,,,,,,,,,,,,,,,,,,,,,,,,,,,,,,,,,,,,,,,,,,,,,,,,,,,,,,,26.450705,58.2627747,Tõravere,Tõravere,1
Torino,LAST-JD,SELECT+,SINCHEM,SMDTex,,,,,,,,,,,,,,,,,,,,,,,,,,,,,,,,,,,,http://www.last-jd.eu/,http://www.exploreselect.eu/SELECTPhD/tabid/1264/language/en-GB/Default.aspx,http://smdtex.ensait.fr/doku.php,http://smdtex.ensait.fr/doku.php,,,,,,,,,,,,,,,,,,,,,,,,,,,,,,,,,,,,1,1,1,1,,,,,,,,,,,,,,,,,,,,,,,,,,,,,,,,,,,,,,,,,,,,,,,,,,,,,,,,,,,,,,,,,,,,,,,,,,,7.6868565,45.070312,Torino,Torino,4
Toulouse,EUDIME,,,,,,,,,,,,,,,,,,,,,,,,,,,,,,,,,,,,,,,http://eudime.unical.it/,,,,,,,,,,,,,,,,,,,,,,,,,,,,,,,,,,,,,,,1,,,,,,,,,,,,,,,,,,,,,,,,,,,,,,,,,,,,,,,,,,,,,,,,,,,,,,,,,,,,,,,,,,,,,,,,,,,,,,1.4442,43.6047,Toulouse,Toulouse,1
Trento,IDEALAB,SMART,,,,,,,,,,,,,,,,,,,,,,,,,,,,,,,,,,,,,,http://www.em-idealab.com//,https://www.riverscience.eu/,,,,,,,,,,,,,,,,,,,,,,,,,,,,,,,,,,,,,,1,1,,,,,,,,,,,,,,,,,,,,,,,,,,,,,,,,,,,,,,,,,,,,,,,,,,,,,,,,,,,,,,,,,,,,,,,,,,,,,11.1217486,46.0747793,Trento,Trento,2
Tübingen,INTERZONES,,,,,,,,,,,,,,,,,,,,,,,,,,,,,,,,,,,,,,,http://www.mundusphd-interzones.eu/,,,,,,,,,,,,,,,,,,,,,,,,,,,,,,,,,,,,,,,,,,,,,,,,,,,,,,,,,,,,,,,,,,,,,,,,,,,,,,,,,,,,,,,,,,,,,,,,,,,,,,,,,,,,,,,,,,,,,9.05222,48.52266,Tübingen,Tübingen,1
Bangor,FONASO,,,,,,,,,,,,,,,,,,,,,,,,,,,,,,,,,,,,,,,http://fonaso.eu/,,,,,,,,,,,,,,,,,,,,,,,,,,,,,,,,,,,,,,,1,,,,,,,,,,,,,,,,,,,,,,,,,,,,,,,,,,,,,,,,,,,,,,,,,,,,,,,,,,,,,,,,,,,,,,,,,,,,,,-4.1239,53.2274,Bangor,Bangor,1
Kopenhagen,AgTraIn,FONASO,,,,,,,,,,,,,,,,,,,,,,,,,,,,,,,,,,,,,,http://agtrain.eu/,http://fonaso.eu/,,,,,,,,,,,,,,,,,,,,,,,,,,,,,,,,,,,,,,1,1,,,,,,,,,,,,,,,,,,,,,,,,,,,,,,,,,,,,,,,,,,,,,,,,,,,,,,,,,,,,,,,,,,,,,,,,,,,,,12.56553,55.67594,Kopenhagen,Kopenhagen,2
Montreal,ALGANT-DOC,,,,,,,,,,,,,,,,,,,,,,,,,,,,,,,,,,,,,,,http://algant.eu/doctorate.php,,,,,,,,,,,,,,,,,,,,,,,,,,,,,,,,,,,,,,,1,,,,,,,,,,,,,,,,,,,,,,,,,,,,,,,,,,,,,,,,,,,,,,,,,,,,,,,,,,,,,,,,,,,,,,,,,,,,,,-73.58781,45.50884,Montreal,Montreal,1
Moscow,MACOMA,,,,,,,,,,,,,,,,,,,,,,,,,,,,,,,,,,,,,,,http://www2.uca.es/serv/catedra-unesco/erasmusmundus/macoma/index.htm,,,,,,,,,,,,,,,,,,,,,,,,,,,,,,,,,,,,,,,1,,,,,,,,,,,,,,,,,,,,,,,,,,,,,,,,,,,,,,,,,,,,,,,,,,,,,,,,,,,,,,,,,,,,,,,,,,,,,,37.35232,55.7498598,Moscow,Moscow,1
Mumbai,NeuroTi,,,,,,,,,,,,,,,,,,,,,,,,,,,,,,,,,,,,,,,http://www.neurotime-erasmus.org/,,,,,,,,,,,,,,,,,,,,,,,,,,,,,,,,,,,,,,,1,,,,,,,,,,,,,,,,,,,,,,,,,,,,,,,,,,,,,,,,,,,,,,,,,,,,,,,,,,,,,,,,,,,,,,,,,,,,,,72.8776559,19.0759837,Mumbai,Mumbai,1
München,SEED,,,,,,,,,,,,,,,,,,,,,,,,,,,,,,,,,,,,,,,http://www.cimne.com/emjd-seed/,,,,,,,,,,,,,,,,,,,,,,,,,,,,,,,,,,,,,,,1,,,,,,,,,,,,,,,,,,,,,,,,,,,,,,,,,,,,,,,,,,,,,,,,,,,,,,,,,,,,,,,,,,,,,,,,,,,,,,11.57549,48.13743,München,München,1
Nancy,DocMASE,FUSION DC,,,,,,,,,,,,,,,,,,,,,,,,,,,,,,,,,,,,,,http://docmase.net,http://www.em-master-fusion.org/,,,,,,,,,,,,,,,,,,,,,,,,,,,,,,,,,,,,,,1,1,,,,,,,,,,,,,,,,,,,,,,,,,,,,,,,,,,,,,,,,,,,,,,,,,,,,,,,,,,,,,,,,,,,,,,,,,,,,,6.184417,48.692054,Nancy,Nancy,2
Nantes,NanoFar,SEED,SELECT+,,,,,,,,,,,,,,,,,,,,,,,,,,,,,,,,,,,,,http://www.erasmusmundus-nanofar.eu/,http://www.cimne.com/emjd-seed/,http://www.exploreselect.eu/SELECTPhD/tabid/1264/language/en-GB/Default.aspx,,,,,,,,,,,,,,,,,,,,,,,,,,,,,,,,,,,,,,1,1,,,,,,,,,,,,,,,,,,,,,,,,,,,,,,,,,,,,,,,,,,,,,,,,,,,,,,,,,,,,,,,,,,,,,,,,,,,,-1.553621,47.218371,Nantes,Nantes,3
Newcastle Upon Tyne,IDEALAB,,,,,,,,,,,,,,,,,,,,,,,,,,,,,,,,,,,,,,,http://www.em-idealab.com//,,,,,,,,,,,,,,,,,,,,,,,,,,,,,,,,,,,,,,,1,,,,,,,,,,,,,,,,,,,,,,,,,,,,,,,,,,,,,,,,,,,,,,,,,,,,,,,,,,,,,,,,,,,,,,,,,,,,,,-1.61396,54.97328,Newcastle Upon Tyne,Newcastle Upon Tyne,1
Nice,IRAP,,,,,,,,,,,,,,,,,,,,,,,,,,,,,,,,,,,,,,,http://www.irap-phd.eu/,,,,,,,,,,,,,,,,,,,,,,,,,,,,,,,,,,,,,,,,,,,,,,,,,,,,,,,,,,,,,,,,,,,,,,,,,,,,,,,,,,,,,,,,,,,,,,,,,,,,,,,,,,,,,,,,,,,,,7.2619532,43.7101728,Nice,Nice,1
Niteroi,INTERZONES,,,,,,,,,,,,,,,,,,,,,,,,,,,,,,,,,,,,,,,http://www.mundusphd-interzones.eu/,,,,,,,,,,,,,,,,,,,,,,,,,,,,,,,,,,,,,,,,,,,,,,,,,,,,,,,,,,,,,,,,,,,,,,,,,,,,,,,,,,,,,,,,,,,,,,,,,,,,,,,,,,,,,,,,,,,,,-43.0802153,-22.9226446,Niteroi,Niteroi,1
Nottingham,NanoFar,SINCHEM,,,,,,,,,,,,,,,,,,,,,,,,,,,,,,,,,,,,,,http://www.erasmusmundus-nanofar.eu/,http://smdtex.ensait.fr/doku.php,,,,,,,,,,,,,,,,,,,,,,,,,,,,,,,,,,,,,,,1,,,,,,,,,,,,,,,,,,,,,,,,,,,,,,,,,,,,,,,,,,,,,,,,,,,,,,,,,,,,,,,,,,,,,,,,,,,,,-1.1581086,52.9547832,Nottingham,Nottingham,2
Oostende,MARES,,,,,,,,,,,,,,,,,,,,,,,,,,,,,,,,,,,,,,,http://www.mares-eu.org/,,,,,,,,,,,,,,,,,,,,,,,,,,,,,,,,,,,,,,,,,,,,,,,,,,,,,,,,,,,,,,,,,,,,,,,,,,,,,,,,,,,,,,,,,,,,,,,,,,,,,,,,,,,,,,,,,,,,,2.927,51.21551,Oostende,Oostende,1
Padova,ALGANT-DOC,EXTATIC,FONASO,FUSION DC,,,,,,,,,,,,,,,,,,,,,,,,,,,,,,,,,,,,http://algant.eu/doctorate.php,http://www.extatic.eu/,http://fonaso.eu/,http://www.em-master-fusion.org/,,,,,,,,,,,,,,,,,,,,,,,,,,,,,,,,,,,,1,1,1,1,,,,,,,,,,,,,,,,,,,,,,,,,,,,,,,,,,,,,,,,,,,,,,,,,,,,,,,,,,,,,,,,,,,,,,,,,,,11.8767611,45.4064349,Padova,Padova,4
